[
  {
    "id": "DEV-001",
    "name": "Camera Trap – B43 km 1.0",
    "type": "camera",
    "zone_id": "ZONE-B43",
    "use_case_id": "UC-001",
    "lat": 6.3805,
    "lng": 81.48,
    "api_key": "dev-key-001",
    "online": true,
    "created_at": "2026-06-19T10:01:43.922844+00:00",
    "updated_at": "2026-07-09T10:18:58.327566+00:00",
    "last_seen": "2026-07-09T10:18:58.327283+00:00"
  },
  {
    "id": "DEV-002",
    "name": "Camera Trap – B43 km 1.2",
    "type": "camera",
    "zone_id": "ZONE-B43",
    "use_case_id": "UC-001",
    "lat": 6.382,
    "lng": 81.48,
    "api_key": "dev-key-002",
    "online": true,
    "created_at": "2026-06-19T10:01:43.931451+00:00",
    "updated_at": "2026-07-09T10:18:37.655247+00:00",
    "last_seen": "2026-07-09T10:18:37.655004+00:00"
  },
  {
    "id": "DEV-003",
    "name": "Thermal Sensor – B43 km 1.4",
    "type": "thermal",
    "zone_id": "ZONE-B43",
    "use_case_id": "UC-001",
    "lat": 6.3835,
    "lng": 81.48,
    "api_key": "dev-key-003",
    "online": true,
    "created_at": "2026-06-19T10:01:43.940048+00:00",
    "updated_at": "2026-07-09T10:18:35.591591+00:00",
    "last_seen": "2026-07-09T10:18:35.591241+00:00"
  },
  {
    "id": "DEV-004",
    "name": "Camera Trap – A2 Junction",
    "type": "camera",
    "zone_id": "ZONE-A2",
    "use_case_id": "UC-001",
    "lat": 6.2812,
    "lng": 81.3902,
    "api_key": "dev-key-004",
    "online": true,
    "created_at": "2026-06-19T10:01:43.948849+00:00",
    "updated_at": "2026-06-19T10:01:43.948864+00:00"
  },
  {
    "id": "DEV-005",
    "name": "Camera Trap – Kataragama Rd",
    "type": "camera",
    "zone_id": "ZONE-KTR",
    "use_case_id": "UC-001",
    "lat": 6.372,
    "lng": 81.331,
    "api_key": "dev-key-005",
    "online": false,
    "created_at": "2026-06-19T10:01:43.957562+00:00",
    "updated_at": "2026-06-19T10:01:43.957582+00:00"
  },
  {
    "name": "Camera Yala 01",
    "type": "camera",
    "use_case_id": "USE-E1C5F1",
    "zone_id": "ZON-AF1CEC",
    "lat": 6.401496,
    "lng": 81.38532,
    "online": true,
    "api_key": "dev-key-846a9295",
    "id": "DEV-36788C",
    "created_at": "2026-06-19T10:05:01.233872+00:00",
    "updated_at": "2026-06-19T10:05:01.233883+00:00"
  },
  {
    "name": "Sensor 2",
    "type": "camera",
    "use_case_id": "USE-E1C5F1",
    "zone_id": "ZON-AF1CEC",
    "lat": 6.399959,
    "lng": 81.386071,
    "online": true,
    "api_key": "dev-key-443707fd",
    "id": "DEV-5E8F35",
    "created_at": "2026-06-19T10:05:12.724821+00:00",
    "updated_at": "2026-06-19T10:57:10.194186+00:00",
    "last_seen": "2026-06-19T10:57:10.193996+00:00"
  },
  {
    "name": "Camera 1",
    "type": "camera",
    "use_case_id": "USE-3F0702",
    "zone_id": "ZON-C588B8",
    "online": true,
    "api_key": "dev-key-884ad1e6",
    "id": "DEV-34D195",
    "created_at": "2026-06-19T10:21:59.271945+00:00",
    "updated_at": "2026-06-19T10:23:01.254667+00:00",
    "lat": 6.387622,
    "lng": 81.416759,
    "last_seen": "2026-06-19T10:23:01.254387+00:00"
  },
  {
    "name": "MQTT Camera cam_04 (Station st_01)",
    "type": "camera",
    "use_case_id": "UC-001",
    "zone_id": "ZONE-B43",
    "lat": 6.3805,
    "lng": 81.48,
    "external_id": "st_01_cam_04",
    "api_key": "mqtt-key-cam_04",
    "online": true,
    "id": "DEV-622F99",
    "created_at": "2026-07-08T09:35:05.138183+00:00",
    "updated_at": "2026-07-10T05:49:14.004995+00:00",
    "last_seen": "2026-07-10T05:49:14.004713+00:00"
  },
  {
    "name": "MQTT Camera cam_01 (Station st_02)",
    "external_id": "st_02_cam_01",
    "type": "camera",
    "zone_id": "ZONE-A2",
    "use_case_id": "UC-001",
    "lat": 6.41,
    "lng": 81.33,
    "vendor": "MQTT",
    "online": true,
    "api_key": "dev-key-f1f17a5c",
    "id": "DEV-874B76",
    "created_at": "2026-07-08T10:52:17.449240+00:00",
    "updated_at": "2026-07-09T03:49:27.099131+00:00",
    "last_seen": "2026-07-09T03:49:27.098883+00:00"
  },
  {
    "name": "Camera Trap - st_03",
    "type": "camera",
    "zone_id": "ZONE-KTR",
    "use_case_id": "UC-001",
    "lat": 6.345434,
    "lng": 81.32176,
    "online": true,
    "api_key": "st_03_cam_01",
    "id": "DEV-B46903",
    "created_at": "2026-07-09T03:58:11.846391+00:00",
    "updated_at": "2026-07-10T03:37:09.789386+00:00",
    "external_id": "st_03_cam_01",
    "last_seen": "2026-07-10T03:37:09.788855+00:00"
  },
  {
    "name": "Camera Trap - st_04",
    "type": "camera",
    "zone_id": "ZONE-A2",
    "use_case_id": "UC-001",
    "lat": 6.403975,
    "lng": 81.386351,
    "online": true,
    "api_key": "st_04_cam_01",
    "external_id": "st_04_cam_01",
    "id": "DEV-5B9EBC",
    "created_at": "2026-07-10T03:20:58.733550+00:00",
    "updated_at": "2026-07-10T03:33:29.408776+00:00",
    "last_seen": "2026-07-10T03:33:29.408177+00:00"
  }
]